#BESTPOSA,UNKNOWN,0,86.5,FINESTEERING,2062,431679.000,02000020,b1f6,32768;SOL_COMPUTED,SINGLE,48.34967266942,-123.57846746150,2.7820,-19.0000,WGS84,3.2772,1.9838,5.2800,,0.000,0.000,9,9,9,0,00,02,00,01*662ee081
#BESTPOSA,UNKNOWN,0,86.5,FINESTEERING,2062,431680.000,02000020,b1f6,32768;SOL_COMPUTED,SINGLE,48.34971011511,-123.57856239828,2.2557,-19.0000,WGS84,3.2976,2.0370,5.3202,,0.000,0.000,9,9,9,0,00,02,00,01*c1062b9e
#BESTPOSA,UNKNOWN,0,87.0,FINESTEERING,2062,431681.000,02000020,b1f6,32768;SOL_COMPUTED,SINGLE,48.34973715567,-123.57865175293,3.9357,-19.0000,WGS84,6.1084,2.7018,7.4451,,0.000,0.000,8,8,8,0,00,02,00,01*9adddf7d
#BESTPOSA,UNKNOWN,0,86.0,FINESTEERING,2062,431682.000,02000020,b1f6,32768;SOL_COMPUTED,SINGLE,48.34977819762,-123.57875403160,3.3817,-19.0000,WGS84,7.7492,3.0591,8.4981,,0.000,0.000,9,9,9,0,00,02,00,01*99f7c3c5
#BESTPOSA,UNKNOWN,0,85.0,FINESTEERING,2062,431683.000,02000020,b1f6,32768;SOL_COMPUTED,SINGLE,48.34980971459,-123.57885352051,2.6855,-19.0000,WGS84,7.9208,3.2074,8.4368,,0.000,0.000,8,8,8,0,00,02,00,01*05542b0a
#BESTPOSA,UNKNOWN,0,85.5,FINESTEERING,2062,431684.000,02000020,b1f6,32768;SOL_COMPUTED,SINGLE,48.34982035789,-123.57894133355,5.2338,-19.0000,WGS84,9.7195,4.2758,11.5282,,0.000,0.000,8,8,8,0,00,02,00,01*b5b936c0
#BESTPOSA,UNKNOWN,0,86.0,FINESTEERING,2062,431685.000,02000020,b1f6,32768;SOL_COMPUTED,SINGLE,48.34986698402,-123.57905282577,3.3695,-19.0000,WGS84,11.2795,6.0484,15.0885,,0.000,0.000,7,7,7,0,00,02,00,01*bbd8097b
#BESTPOSA,UNKNOWN,0,85.0,FINESTEERING,2062,431686.000,02000020,b1f6,32768;SOL_COMPUTED,SINGLE,48.34987717882,-123.57914431489,6.6571,-19.0000,WGS84,8.4927,4.7200,11.2265,,0.000,0.000,9,9,9,0,00,02,00,01*9f44ed57
#BESTPOSA,UNKNOWN,0,85.0,FINESTEERING,2062,431687.000,02000020,b1f6,32768;SOL_COMPUTED,SINGLE,48.34989811306,-123.57925714241,6.0620,-19.0000,WGS84,8.4216,5.0342,11.9183,,0.000,0.000,8,8,8,0,00,02,00,01*f888c42f
#BESTPOSA,UNKNOWN,0,85.0,FINESTEERING,2062,431688.000,02000020,b1f6,32768;SOL_COMPUTED,SINGLE,48.34989851343,-123.57934783751,9.1191,-19.0000,WGS84,7.7297,4.3665,10.2014,,0.000,0.000,9,9,9,0,00,02,00,01*5ca302b2
#BESTPOSA,UNKNOWN,0,85.0,FINESTEERING,2062,431689.000,02000020,b1f6,32768;SOL_COMPUTED,SINGLE,48.34993126684,-123.57946417890,7.4554,-19.0000,WGS84,7.4836,4.4256,10.2481,,0.000,0.000,8,8,8,0,00,02,00,01*9c00fa0a
#BESTPOSA,UNKNOWN,0,84.5,FINESTEERING,2062,431690.000,02000020,b1f6,32768;SOL_COMPUTED,SINGLE,48.34994769355,-123.57956627752,8.8095,-19.0000,WGS84,7.3506,4.2150,9.8050,,0.000,0.000,9,9,9,0,00,02,00,01*81f3ddcc
#BESTPOSA,UNKNOWN,0,86.0,FINESTEERING,2062,431691.000,02000020,b1f6,32768;SOL_COMPUTED,SINGLE,48.34997336667,-123.57969927667,6.6499,-19.0000,WGS84,7.4213,5.3239,10.5747,,0.000,0.000,8,8,8,0,00,02,00,01*9aea9589
#BESTPOSA,UNKNOWN,0,86.5,FINESTEERING,2062,431692.000,02000020,b1f6,32768;SOL_COMPUTED,SINGLE,48.34998383164,-123.57982085944,6.5380,-19.0000,WGS84,7.6281,5.7760,10.9784,,0.000,0.000,8,8,8,0,00,02,00,01*9a5de294
#BESTPOSA,UNKNOWN,0,78.5,FINESTEERING,2062,431693.000,02000020,b1f6,32768;SOL_COMPUTED,SINGLE,48.35000172219,-123.57992751696,6.2930,-19.0000,WGS84,9.7750,6.8200,12.6275,,0.000,0.000,6,6,6,0,00,02,00,01*efbfbb38
#BESTPOSA,UNKNOWN,0,86.0,FINESTEERING,2062,431694.000,02000020,b1f6,32768;SOL_COMPUTED,SINGLE,48.35001245837,-123.58004262774,8.9518,-19.0000,WGS84,8.8840,6.1193,11.4604,,0.000,0.000,9,9,9,0,00,02,00,01*b10a11a5
#BESTPOSA,UNKNOWN,0,87.0,FINESTEERING,2062,431695.000,02000020,b1f6,32768;SOL_COMPUTED,SINGLE,48.35004273865,-123.58015938447,8.5216,-19.0000,WGS84,7.0194,5.6345,9.0292,,0.000,0.000,8,8,8,0,00,02,00,01*20c0abe0
#BESTPOSA,UNKNOWN,0,85.0,FINESTEERING,2062,431696.000,02000020,b1f6,32768;SOL_COMPUTED,SINGLE,48.35004384942,-123.58027182801,8.0113,-19.0000,WGS84,6.7669,5.3303,8.7805,,0.000,0.000,9,9,9,0,00,02,00,01*98681bee
#BESTPOSA,UNKNOWN,0,86.0,FINESTEERING,2062,431697.000,02000020,b1f6,32768;SOL_COMPUTED,SINGLE,48.35006035526,-123.58038408425,9.1787,-19.0000,WGS84,6.9795,5.4806,9.1593,,0.000,0.000,8,8,8,0,00,02,00,01*9b049214
#BESTPOSA,UNKNOWN,0,86.0,FINESTEERING,2062,431698.000,02000020,b1f6,32768;SOL_COMPUTED,SINGLE,48.35007949221,-123.58049624220,9.3650,-19.0000,WGS84,6.2257,4.9424,8.2191,,0.000,0.000,9,9,9,0,00,02,00,01*9901b441
#BESTPOSA,UNKNOWN,0,86.0,FINESTEERING,2062,431699.000,02000020,b1f6,32768;SOL_COMPUTED,SINGLE,48.35010752900,-123.58060648794,10.1860,-19.0000,WGS84,5.5342,3.7939,7.0505,,0.000,0.000,8,8,8,0,00,02,00,01*83313d1a
#BESTPOSA,UNKNOWN,0,86.5,FINESTEERING,2062,431700.000,02000020,b1f6,32768;SOL_COMPUTED,SINGLE,48.35013748523,-123.58071415827,10.9950,-19.0000,WGS84,8.1997,3.6984,9.0866,,0.000,0.000,8,8,8,0,00,02,00,01*9cc16083
#BESTPOSA,UNKNOWN,0,86.0,FINESTEERING,2062,431701.000,02000020,b1f6,32768;SOL_COMPUTED,SINGLE,48.35018151704,-123.58081072605,11.6690,-19.0000,WGS84,7.1430,3.4870,8.2631,,0.000,0.000,9,9,9,0,00,02,00,01*9457ffb0
#BESTPOSA,UNKNOWN,0,85.0,FINESTEERING,2062,431702.000,02000020,b1f6,32768;SOL_COMPUTED,SINGLE,48.35022953275,-123.58090400231,11.4715,-19.0000,WGS84,6.3011,3.3425,7.6466,,0.000,0.000,9,9,9,0,00,02,00,01*6c132efb
#BESTPOSA,UNKNOWN,0,86.5,FINESTEERING,2062,431703.000,02000020,b1f6,32768;SOL_COMPUTED,SINGLE,48.35029405175,-123.58099253494,12.2681,-19.0000,WGS84,7.8209,3.2156,9.1842,,0.000,0.000,7,7,7,0,00,02,00,01*540fd6f3
#BESTPOSA,UNKNOWN,0,87.0,FINESTEERING,2062,431704.000,02000020,b1f6,32768;SOL_COMPUTED,SINGLE,48.35035853417,-123.58107801375,13.3445,-19.0000,WGS84,6.7490,3.0262,8.0957,,0.000,0.000,9,9,9,0,00,02,00,01*356bb370
#BESTPOSA,UNKNOWN,0,86.5,FINESTEERING,2062,431705.000,02000020,b1f6,32768;SOL_COMPUTED,SINGLE,48.35041585053,-123.58116755355,12.8856,-19.0000,WGS84,5.7412,2.9018,7.2478,,0.000,0.000,9,9,9,0,00,02,00,01*70508bfa
#BESTPOSA,UNKNOWN,0,86.0,FINESTEERING,2062,431706.000,02000020,b1f6,32768;SOL_COMPUTED,SINGLE,48.35048287797,-123.58125250972,13.7070,-19.0000,WGS84,5.6515,3.2996,7.6603,,0.000,0.000,9,9,9,0,00,02,00,01*f686ac69
#BESTPOSA,UNKNOWN,0,86.5,FINESTEERING,2062,431707.000,02000020,b1f6,32768;SOL_COMPUTED,SINGLE,48.35055164657,-123.58133444433,13.4603,-19.0000,WGS84,5.5717,3.1683,7.6045,,0.000,0.000,9,9,9,0,00,02,00,01*458242c4
#BESTPOSA,UNKNOWN,0,86.0,FINESTEERING,2062,431708.000,02000020,b1f6,32768;SOL_COMPUTED,SINGLE,48.35062102407,-123.58141503457,13.8857,-19.0000,WGS84,5.1326,2.9625,7.1888,,0.000,0.000,9,9,9,0,00,02,00,01*92ddceec
#BESTPOSA,UNKNOWN,0,86.0,FINESTEERING,2062,431709.000,02000020,b1f6,32768;SOL_COMPUTED,SINGLE,48.35068300903,-123.58150458834,13.6021,-19.0000,WGS84,3.9583,2.8308,5.8840,,0.000,0.000,8,8,8,0,00,02,00,01*368bec51
#BESTPOSA,UNKNOWN,0,87.0,FINESTEERING,2062,431710.000,02000020,b1f6,32768;SOL_COMPUTED,SINGLE,48.35075425371,-123.58159004110,13.8240,-19.0000,WGS84,3.7459,2.6588,5.6911,,0.000,0.000,9,9,9,0,00,02,00,01*7801c0d4
#BESTPOSA,UNKNOWN,0,86.5,FINESTEERING,2062,431711.000,02000020,b1f6,32768;SOL_COMPUTED,SINGLE,48.35082472595,-123.58167568883,13.7456,-19.0000,WGS84,3.5219,2.4836,5.6056,,0.000,0.000,8,8,8,0,00,02,00,01*fd330fd3
#BESTPOSA,UNKNOWN,0,86.5,FINESTEERING,2062,431712.000,02000020,b1f6,32768;SOL_COMPUTED,SINGLE,48.35089288550,-123.58176268673,13.9187,-19.0000,WGS84,3.3623,2.3791,5.3770,,0.000,0.000,9,9,9,0,00,02,00,01*313a2188
#BESTPOSA,UNKNOWN,0,87.0,FINESTEERING,2062,431713.000,02000020,b1f6,32768;SOL_COMPUTED,SINGLE,48.35095660462,-123.58184986978,13.9341,-19.0000,WGS84,3.2713,2.2864,5.2877,,0.000,0.000,8,8,8,0,00,02,00,01*9e2c5458
#BESTPOSA,UNKNOWN,0,86.5,FINESTEERING,2062,431714.000,02000020,b1f6,32768;SOL_COMPUTED,SINGLE,48.35102057010,-123.58192972737,13.5316,-19.0000,WGS84,3.0824,2.2008,5.0515,,0.000,0.000,9,9,9,0,00,02,00,01*46cc2f98
#BESTPOSA,UNKNOWN,0,86.5,FINESTEERING,2062,431715.000,02000020,b1f6,32768;SOL_COMPUTED,SINGLE,48.35108036224,-123.58200003861,13.3552,-19.0000,WGS84,2.9366,2.1070,4.8664,,0.000,0.000,9,9,9,0,00,02,00,01*fe5d47c4
#BESTPOSA,UNKNOWN,0,86.5,FINESTEERING,2062,431716.000,02000020,b1f6,32768;SOL_COMPUTED,SINGLE,48.35113047821,-123.58206015238,13.4125,-19.0000,WGS84,2.8137,2.0000,4.6771,,0.000,0.000,9,9,9,0,00,02,00,01*7472a1a7
#BESTPOSA,UNKNOWN,0,87.0,FINESTEERING,2062,431717.000,02000020,b1f6,32768;SOL_COMPUTED,SINGLE,48.35117301812,-123.58211084465,13.2002,-19.0000,WGS84,2.7094,1.9526,4.5471,,0.000,0.000,9,9,9,0,00,02,00,01*024a1b59
#BESTPOSA,UNKNOWN,0,87.5,FINESTEERING,2062,431718.000,02000020,b1f6,32768;SOL_COMPUTED,SINGLE,48.35120751813,-123.58215104852,13.2103,-19.0000,WGS84,2.6296,1.9373,4.4648,,0.000,0.000,9,9,9,0,00,02,00,01*1f40ccd7
#BESTPOSA,UNKNOWN,0,87.5,FINESTEERING,2062,431719.000,02000020,b1f6,32768;SOL_COMPUTED,SINGLE,48.35123286565,-123.58218095392,13.2786,-19.0000,WGS84,2.4770,1.8347,4.1991,,0.000,0.000,9,9,9,0,00,02,00,01*cd5634e4
#BESTPOSA,UNKNOWN,0,87.0,FINESTEERING,2062,431720.000,02000020,b1f6,32768;SOL_COMPUTED,SINGLE,48.35124879558,-123.58219937264,13.2682,-19.0000,WGS84,2.4008,1.8358,4.1362,,0.000,0.000,9,9,9,0,00,02,00,01*76efcdca
#BESTPOSA,UNKNOWN,0,86.5,FINESTEERING,2062,431721.000,02000020,b1f6,32768;SOL_COMPUTED,SINGLE,48.35125821194,-123.58221267560,13.2148,-19.0000,WGS84,2.3597,1.8178,4.1240,,0.000,0.000,9,9,9,0,00,02,00,01*20fd8bf6
#BESTPOSA,UNKNOWN,0,86.5,FINESTEERING,2062,431722.000,02000020,b1f6,32768;SOL_COMPUTED,SINGLE,48.35126702610,-123.58222711581,13.1404,-19.0000,WGS84,2.2940,1.7792,4.0449,,0.000,0.000,9,9,9,0,00,02,00,01*d5cf8607
#BESTPOSA,UNKNOWN,0,87.0,FINESTEERING,2062,431723.000,02000020,b1f6,32768;SOL_COMPUTED,SINGLE,48.35127611128,-123.58224668860,13.1168,-19.0000,WGS84,2.2061,1.7425,3.9464,,0.000,0.000,9,9,9,0,00,02,00,01*09c55be3
#BESTPOSA,UNKNOWN,0,86.5,FINESTEERING,2062,431724.000,02000020,b1f6,32768;SOL_COMPUTED,SINGLE,48.35128443101,-123.58228007330,12.9824,-19.0000,WGS84,2.1290,1.7006,3.8699,,0.000,0.000,9,9,9,0,00,02,00,01*9111dee1
#BESTPOSA,UNKNOWN,0,87.5,FINESTEERING,2062,431725.000,02000020,b1f6,32768;SOL_COMPUTED,SINGLE,48.35128359319,-123.58232610246,12.5770,-19.0000,WGS84,3.0336,1.7619,4.8426,,0.000,0.000,9,9,9,0,00,02,00,01*2710fd29
#BESTPOSA,UNKNOWN,0,87.0,FINESTEERING,2062,431726.000,02000020,b1f6,32768;SOL_COMPUTED,SINGLE,48.35126710927,-123.58237749622,12.3595,-19.0000,WGS84,3.0076,1.7461,4.7785,,0.000,0.000,9,9,9,0,00,02,00,01*3c803aae
#BESTPOSA,UNKNOWN,0,86.5,FINESTEERING,2062,431727.000,02000020,b1f6,32768;SOL_COMPUTED,SINGLE,48.35123343279,-123.58242702471,12.2930,-19.0000,WGS84,2.9777,1.8070,4.8483,,0.000,0.000,9,9,9,0,00,02,00,01*203496eb
#BESTPOSA,UNKNOWN,0,87.0,FINESTEERING,2062,431728.000,02000020,b1f6,32768;SOL_COMPUTED,SINGLE,48.35118366328,-123.58246966524,11.9088,-19.0000,WGS84,3.0369,1.8185,4.8516,,0.000,0.000,9,9,9,0,00,02,00,01*f69538f9
#BESTPOSA,UNKNOWN,0,87.5,FINESTEERING,2062,431729.000,02000020,b1f6,32768;SOL_COMPUTED,SINGLE,48.35112940908,-123.58250581972,13.1638,-19.0000,WGS84,3.0049,1.8002,4.9172,,0.000,0.000,9,9,9,0,00,02,00,01*62e92f18
#BESTPOSA,UNKNOWN,0,87.0,FINESTEERING,2062,431730.000,02000020,b1f6,32768;SOL_COMPUTED,SINGLE,48.35106032620,-123.58254429463,12.8935,-19.0000,WGS84,3.2281,1.9070,5.0639,,0.000,0.000,9,9,9,0,00,02,00,01*c919a08c
#BESTPOSA,UNKNOWN,0,87.0,FINESTEERING,2062,431731.000,02000020,b1f6,32768;SOL_COMPUTED,SINGLE,48.35099162636,-123.58258256219,12.9738,-19.0000,WGS84,3.1786,1.8849,5.1355,,0.000,0.000,9,9,9,0,00,02,00,01*206f40db
#BESTPOSA,UNKNOWN,0,86.0,FINESTEERING,2062,431732.000,02000020,b1f6,32768;SOL_COMPUTED,SINGLE,48.35093179128,-123.58262624651,14.6006,-19.0000,WGS84,3.0489,1.8303,5.1463,,0.000,0.000,8,8,8,0,00,02,00,01*c3877a84
#BESTPOSA,UNKNOWN,0,87.0,FINESTEERING,2062,431733.000,02000020,b1f6,32768;SOL_COMPUTED,SINGLE,48.35086067912,-123.58267454326,13.6330,-19.0000,WGS84,2.9163,1.7963,5.0100,,0.000,0.000,9,9,9,0,00,02,00,01*30477e67
#BESTPOSA,UNKNOWN,0,86.5,FINESTEERING,2062,431734.000,02000020,b1f6,32768;SOL_COMPUTED,SINGLE,48.35080316746,-123.58274156886,13.4436,-19.0000,WGS84,2.7429,1.7713,4.8352,,0.000,0.000,9,9,9,0,00,02,00,01*06e65119
#BESTPOSA,UNKNOWN,0,86.5,FINESTEERING,2062,431735.000,02000020,b1f6,32768;SOL_COMPUTED,SINGLE,48.35075840760,-123.58282510174,13.5308,-19.0000,WGS84,2.7057,1.7526,4.8140,,0.000,0.000,8,8,8,0,00,02,00,01*f2bc531b
#BESTPOSA,UNKNOWN,0,87.0,FINESTEERING,2062,431736.000,02000020,b1f6,32768;SOL_COMPUTED,SINGLE,48.35073188121,-123.58292449541,14.3157,-19.0000,WGS84,2.6728,1.7440,4.7642,,0.000,0.000,9,9,9,0,00,02,00,01*54b44011
#BESTPOSA,UNKNOWN,0,87.0,FINESTEERING,2062,431737.000,02000020,b1f6,32768;SOL_COMPUTED,SINGLE,48.35071527408,-123.58303047335,14.9026,-19.0000,WGS84,2.7146,1.8216,4.7671,,0.000,0.000,8,8,8,0,00,02,00,01*c2b8bb39
#BESTPOSA,UNKNOWN,0,86.0,FINESTEERING,2062,431738.000,02000020,b1f6,32768;SOL_COMPUTED,SINGLE,48.35071636495,-123.58314882505,15.7430,-19.0000,WGS84,2.6480,1.7801,4.7799,,0.000,0.000,8,8,8,0,00,02,00,01*b94387b6
#BESTPOSA,UNKNOWN,0,86.5,FINESTEERING,2062,431739.000,02000020,b1f6,32768;SOL_COMPUTED,SINGLE,48.35072731702,-123.58327748806,16.5483,-19.0000,WGS84,3.8219,2.0532,5.5814,,0.000,0.000,8,8,8,0,00,02,00,01*0b1efb23
#BESTPOSA,UNKNOWN,0,87.0,FINESTEERING,2062,431740.000,02000020,b1f6,32768;SOL_COMPUTED,SINGLE,48.35073075935,-123.58342540887,16.2431,-19.0000,WGS84,3.9531,2.4057,5.7034,,0.000,0.000,9,9,9,0,00,02,00,01*36edc7d2
#BESTPOSA,UNKNOWN,0,87.5,FINESTEERING,2062,431741.000,02000020,b1f6,32768;SOL_COMPUTED,SINGLE,48.35074896411,-123.58358267652,17.1759,-19.0000,WGS84,3.9533,2.3921,5.6770,,0.000,0.000,9,9,9,0,00,02,00,01*886c5c0f
#BESTPOSA,UNKNOWN,0,86.5,FINESTEERING,2062,431742.000,02000020,b1f6,32768;SOL_COMPUTED,SINGLE,48.35075579027,-123.58375135507,16.9339,-19.0000,WGS84,4.0772,2.3663,5.7766,,0.000,0.000,8,8,8,0,00,02,00,01*5b8dd57d
#BESTPOSA,UNKNOWN,0,86.5,FINESTEERING,2062,431743.000,02000020,b1f6,32768;SOL_COMPUTED,SINGLE,48.35077000917,-123.58391876975,17.1845,-19.0000,WGS84,3.8223,2.3363,5.5470,,0.000,0.000,9,9,9,0,00,02,00,01*45b31254
#BESTPOSA,UNKNOWN,0,87.0,FINESTEERING,2062,431744.000,02000020,b1f6,32768;SOL_COMPUTED,SINGLE,48.35078815380,-123.58408950443,17.6886,-19.0000,WGS84,3.8707,2.3643,5.6128,,0.000,0.000,8,8,8,0,00,02,00,01*6be21414
#BESTPOSA,UNKNOWN,0,85.5,FINESTEERING,2062,431745.000,02000020,b1f6,32768;SOL_COMPUTED,SINGLE,48.35081092746,-123.58425758043,18.3352,-19.0000,WGS84,3.8560,2.4578,5.6481,,0.000,0.000,9,9,9,0,00,02,00,01*70247e0b
#BESTPOSA,UNKNOWN,0,86.5,FINESTEERING,2062,431746.000,02000020,b1f6,32768;SOL_COMPUTED,SINGLE,48.35082563707,-123.58442634852,18.0303,-19.0000,WGS84,3.8614,2.4244,5.6722,,0.000,0.000,8,8,8,0,00,02,00,01*2dbf0cf6
#BESTPOSA,UNKNOWN,0,86.0,FINESTEERING,2062,431747.000,02000020,b1f6,32768;SOL_COMPUTED,SINGLE,48.35085104219,-123.58458929075,19.2390,-19.0000,WGS84,3.8122,2.3810,5.5912,,0.000,0.000,9,9,9,0,00,02,00,01*61866340
#BESTPOSA,UNKNOWN,0,86.5,FINESTEERING,2062,431748.000,02000020,b1f6,32768;SOL_COMPUTED,SINGLE,48.35087301152,-123.58473158669,21.7523,-19.0000,WGS84,4.5488,4.1640,6.0901,,0.000,0.000,9,9,9,0,00,02,00,01*bcc6d626
#BESTPOSA,UNKNOWN,0,87.0,FINESTEERING,2062,431749.000,02000020,b1f6,32768;SOL_COMPUTED,SINGLE,48.35088913495,-123.58487488777,22.9251,-19.0000,WGS84,4.4476,4.1671,6.1663,,0.000,0.000,8,8,8,0,00,02,00,01*d9e47a9c
#BESTPOSA,UNKNOWN,0,86.0,FINESTEERING,2062,431750.000,02000020,b1f6,32768;SOL_COMPUTED,SINGLE,48.35089968952,-123.58502755718,23.3658,-19.0000,WGS84,4.3098,3.9565,5.9791,,0.000,0.000,9,9,9,0,00,02,00,01*3e5c4d2c
#BESTPOSA,UNKNOWN,0,86.0,FINESTEERING,2062,431751.000,02000020,b1f6,32768;SOL_COMPUTED,SINGLE,48.35089285131,-123.58516308457,25.4282,-19.0000,WGS84,5.3630,3.8678,7.2143,,0.000,0.000,9,9,9,0,00,02,00,01*376770a3
#BESTPOSA,UNKNOWN,0,85.0,FINESTEERING,2062,431752.000,02000020,b1f6,32768;SOL_COMPUTED,SINGLE,48.35088413119,-123.58529363449,27.9648,-19.0000,WGS84,5.2022,3.6790,7.0295,,0.000,0.000,9,9,9,0,00,02,00,01*a5adef5f
#BESTPOSA,UNKNOWN,0,79.5,FINESTEERING,2062,431753.000,02000020,b1f6,32768;SOL_COMPUTED,SINGLE,48.35086804610,-123.58545977850,27.1319,-19.0000,WGS84,5.2347,3.6562,7.1700,,0.000,0.000,8,8,8,0,00,02,00,01*0ed54ca2
#BESTPOSA,UNKNOWN,0,87.0,FINESTEERING,2062,431754.000,02000020,b1f6,32768;SOL_COMPUTED,SINGLE,48.35083880223,-123.58561137662,27.6907,-19.0000,WGS84,5.2299,3.5736,7.1491,,0.000,0.000,8,8,8,0,00,02,00,01*98b69eb4
#BESTPOSA,UNKNOWN,0,86.5,FINESTEERING,2062,431755.000,02000020,b1f6,32768;SOL_COMPUTED,SINGLE,48.35079030013,-123.58573755362,28.8497,-19.0000,WGS84,5.2377,3.3966,7.1345,,0.000,0.000,8,8,8,0,00,02,00,01*b378220c
#BESTPOSA,UNKNOWN,0,87.0,FINESTEERING,2062,431756.000,02000020,b1f6,32768;SOL_COMPUTED,SINGLE,48.35074258789,-123.58584864428,30.3412,-19.0000,WGS84,5.4945,3.3910,7.3202,,0.000,0.000,8,8,8,0,00,02,00,01*4e3beb31
#BESTPOSA,UNKNOWN,0,86.5,FINESTEERING,2062,431757.000,02000020,b1f6,32768;SOL_COMPUTED,SINGLE,48.35063695445,-123.58594009115,29.6256,-19.0000,WGS84,7.0727,3.3984,8.0424,,0.000,0.000,7,7,7,0,00,02,00,01*3729a0ee
#BESTPOSA,UNKNOWN,0,85.5,FINESTEERING,2062,431758.000,02000020,b1f6,32768;SOL_COMPUTED,SINGLE,48.35056681433,-123.58602428475,29.3230,-19.0000,WGS84,6.8916,3.2098,7.8846,,0.000,0.000,8,8,8,0,00,02,00,01*1ecffbba
#BESTPOSA,UNKNOWN,0,85.5,FINESTEERING,2062,431759.000,02000020,b1f6,32768;SOL_COMPUTED,SINGLE,48.35047612594,-123.58607781961,30.6596,-19.0000,WGS84,6.4880,3.2158,7.6866,,0.000,0.000,8,8,8,0,00,02,00,01*0841afc0
#BESTPOSA,UNKNOWN,0,86.0,FINESTEERING,2062,431760.000,02000020,b1f6,32768;SOL_COMPUTED,SINGLE,48.35036336246,-123.58611485073,31.5555,-19.0000,WGS84,6.2935,3.1874,7.6162,,0.000,0.000,8,8,8,0,00,02,00,01*77af9cb7
#BESTPOSA,UNKNOWN,0,86.0,FINESTEERING,2062,431761.000,02000020,b1f6,32768;SOL_COMPUTED,SINGLE,48.35026719656,-123.58614639953,34.8548,-19.0000,WGS84,6.8506,4.6844,8.5194,,0.000,0.000,8,8,8,0,00,02,00,01*99efa4f0
#BESTPOSA,UNKNOWN,0,86.5,FINESTEERING,2062,431762.000,02000020,b1f6,32768;SOL_COMPUTED,SINGLE,48.35015605790,-123.58619900472,35.7273,-19.0000,WGS84,6.6912,5.0283,8.6607,,0.000,0.000,8,8,8,0,00,02,00,01*0308a8b0
#BESTPOSA,UNKNOWN,0,86.5,FINESTEERING,2062,431763.000,02000020,b1f6,32768;SOL_COMPUTED,SINGLE,48.35001352646,-123.58624343519,35.1502,-19.0000,WGS84,6.8123,5.0444,8.7357,,0.000,0.000,8,8,8,0,00,02,00,01*9cbf25ad
#BESTPOSA,UNKNOWN,0,87.0,FINESTEERING,2062,431764.000,02000020,b1f6,32768;SOL_COMPUTED,SINGLE,48.34990816003,-123.58629091794,37.6640,-19.0000,WGS84,6.8509,5.1151,8.7285,,0.000,0.000,8,8,8,0,00,02,00,01*1e5f2f79
#BESTPOSA,UNKNOWN,0,86.0,FINESTEERING,2062,431765.000,02000020,b1f6,32768;SOL_COMPUTED,SINGLE,48.34975787983,-123.58632191268,34.6535,-19.0000,WGS84,7.9790,5.3489,9.6998,,0.000,0.000,7,7,7,0,00,02,00,01*482ba426
#BESTPOSA,UNKNOWN,0,85.5,FINESTEERING,2062,431766.000,02000020,b1f6,32768;SOL_COMPUTED,SINGLE,48.34964336088,-123.58639834453,37.5892,-19.0000,WGS84,7.5431,5.1217,9.2106,,0.000,0.000,9,9,9,0,00,02,00,01*dfcc6e7d
#BESTPOSA,UNKNOWN,0,85.5,FINESTEERING,2062,431767.000,02000020,b1f6,32768;SOL_COMPUTED,SINGLE,48.34952852950,-123.58646335195,33.8663,-19.0000,WGS84,6.7853,4.8616,8.7348,,0.000,0.000,8,8,8,0,00,02,00,01*02c8aeda
#BESTPOSA,UNKNOWN,0,86.0,FINESTEERING,2062,431768.000,02000020,b1f6,32768;SOL_COMPUTED,SINGLE,48.34940406663,-123.58654589351,35.7467,-19.0000,WGS84,7.1488,5.1709,8.5060,,0.000,0.000,9,9,9,0,00,02,00,01*9c5729c2
#BESTPOSA,UNKNOWN,0,85.0,FINESTEERING,2062,431769.000,02000020,b1f6,32768;SOL_COMPUTED,SINGLE,48.34928961401,-123.58661653262,36.4358,-19.0000,WGS84,9.4068,6.9373,9.0683,,0.000,0.000,8,8,8,0,00,02,00,01*47c9a885
#BESTPOSA,UNKNOWN,0,85.5,FINESTEERING,2062,431770.000,02000020,b1f6,32768;SOL_COMPUTED,SINGLE,48.34916019038,-123.58668505782,34.2130,-19.0000,WGS84,8.5506,6.2971,9.5181,,0.000,0.000,8,8,8,0,00,02,00,01*c79d14de
#BESTPOSA,UNKNOWN,0,86.0,FINESTEERING,2062,431771.000,02000020,b1f6,32768;SOL_COMPUTED,SINGLE,48.34905103365,-123.58675676347,34.9129,-19.0000,WGS84,8.0053,5.7442,9.1115,,0.000,0.000,9,9,9,0,00,02,00,01*b10f36f4
#BESTPOSA,UNKNOWN,0,85.5,FINESTEERING,2062,431772.000,02000020,b1f6,32768;SOL_COMPUTED,SINGLE,48.34896333923,-123.58686049271,37.6736,-19.0000,WGS84,8.5210,5.9245,8.6198,,0.000,0.000,9,9,9,0,00,02,00,01*0cf51541
#BESTPOSA,UNKNOWN,0,87.0,FINESTEERING,2062,431773.000,02000020,b1f6,32768;SOL_COMPUTED,SINGLE,48.34884347409,-123.58693056624,34.1838,-19.0000,WGS84,8.9150,6.1165,8.5894,,0.000,0.000,9,9,9,0,00,02,00,01*2934ea7b
#BESTPOSA,UNKNOWN,0,85.5,FINESTEERING,2062,431774.000,02000020,b1f6,32768;SOL_COMPUTED,SINGLE,48.34874830350,-123.58702344672,35.4475,-19.0000,WGS84,7.9023,5.6628,8.5969,,0.000,0.000,9,9,9,0,00,02,00,01*996e0a36
#BESTPOSA,UNKNOWN,0,86.5,FINESTEERING,2062,431775.000,02000020,b1f6,32768;SOL_COMPUTED,SINGLE,48.34863938893,-123.58712233833,34.2985,-18.9000,WGS84,7.6711,5.5701,8.6857,,0.000,0.000,8,8,8,0,00,02,00,01*405f9f24
#BESTPOSA,UNKNOWN,0,86.0,FINESTEERING,2062,431776.000,02000020,b1f6,32768;SOL_COMPUTED,SINGLE,48.34855646418,-123.58724788442,33.8531,-18.9000,WGS84,7.3278,5.2566,8.4412,,0.000,0.000,9,9,9,0,00,02,00,01*dfede206
#BESTPOSA,UNKNOWN,0,86.5,FINESTEERING,2062,431777.000,02000020,b1f6,32768;SOL_COMPUTED,SINGLE,48.34845652907,-123.58736576789,35.1192,-18.9000,WGS84,7.3466,5.3476,8.3337,,0.000,0.000,9,9,9,0,00,02,00,01*a014193c
#BESTPOSA,UNKNOWN,0,87.0,FINESTEERING,2062,431778.000,02000020,b1f6,32768;SOL_COMPUTED,SINGLE,48.34834527001,-123.58744054405,31.6787,-18.9000,WGS84,7.2630,5.6972,8.6006,,0.000,0.000,9,9,9,0,00,02,00,01*d4385596
#BESTPOSA,UNKNOWN,0,87.0,FINESTEERING,2062,431779.000,02000020,b1f6,32768;SOL_COMPUTED,SINGLE,48.34824604531,-123.58755534855,29.0638,-18.9000,WGS84,7.3205,5.7174,9.5626,,0.000,0.000,7,7,7,0,00,02,00,01*83637e72
#BESTPOSA,UNKNOWN,0,86.0,FINESTEERING,2062,431780.000,02000020,b1f6,32768;SOL_COMPUTED,SINGLE,48.34813613479,-123.58764985251,31.2486,-18.9000,WGS84,7.1163,5.2833,9.1150,,0.000,0.000,9,9,9,0,00,02,00,01*db5644d0
#BESTPOSA,UNKNOWN,0,85.0,FINESTEERING,2062,431781.000,02000020,b1f6,32768;SOL_COMPUTED,SINGLE,48.34802024642,-123.58770823718,31.9872,-18.9000,WGS84,7.0042,5.1612,8.3884,,0.000,0.000,9,9,9,0,00,02,00,01*6bbe7dc8
#BESTPOSA,UNKNOWN,0,85.0,FINESTEERING,2062,431782.000,02000020,b1f6,32768;SOL_COMPUTED,SINGLE,48.34790352797,-123.58777250983,31.2889,-18.9000,WGS84,8.7351,6.2874,9.2061,,0.000,0.000,8,8,8,0,00,02,00,01*481032aa
#BESTPOSA,UNKNOWN,0,86.0,FINESTEERING,2062,431783.000,02000020,b1f6,32768;SOL_COMPUTED,SINGLE,48.34777469217,-123.58780775300,34.4647,-18.9000,WGS84,8.1024,5.8777,9.1484,,0.000,0.000,9,9,9,0,00,02,00,01*daf46bc0
#BESTPOSA,UNKNOWN,0,86.0,FINESTEERING,2062,431784.000,02000020,b1f6,32768;SOL_COMPUTED,SINGLE,48.34771571122,-123.58790551616,34.6931,-18.9000,WGS84,9.7781,6.2627,12.5974,,0.000,0.000,8,8,8,0,00,02,00,01*22eb6967
#BESTPOSA,UNKNOWN,0,85.0,FINESTEERING,2062,431785.000,02000020,b1f6,32768;SOL_COMPUTED,SINGLE,48.34756538266,-123.58790550057,33.3285,-18.9000,WGS84,9.5808,6.2213,11.3414,,0.000,0.000,9,9,9,0,00,02,00,01*801d59be
#BESTPOSA,UNKNOWN,0,84.0,FINESTEERING,2062,431786.000,02000020,b1f6,32768;SOL_COMPUTED,SINGLE,48.34747777480,-123.58797038861,32.9557,-18.9000,WGS84,6.9971,4.6225,9.4034,,0.000,0.000,9,9,9,0,00,02,00,01*0560c46f
#BESTPOSA,UNKNOWN,0,84.5,FINESTEERING,2062,431787.000,02000020,b1f6,32768;SOL_COMPUTED,SINGLE,48.34738926331,-123.58802792299,30.3683,-18.9000,WGS84,6.9957,4.6345,9.2550,,0.000,0.000,9,9,9,0,00,02,00,01*a6c31c32
#BESTPOSA,UNKNOWN,0,86.0,FINESTEERING,2062,431788.000,02000020,b1f6,32768;SOL_COMPUTED,SINGLE,48.34730000243,-123.58808302301,30.2130,-18.9000,WGS84,7.5052,4.5605,10.0829,,0.000,0.000,8,8,8,0,00,02,00,01*13a42bea
#BESTPOSA,UNKNOWN,0,86.0,FINESTEERING,2062,431789.000,02000020,b1f6,32768;SOL_COMPUTED,SINGLE,48.34721018060,-123.58814934994,31.5421,-18.9000,WGS84,7.2443,4.6333,9.6490,,0.000,0.000,9,9,9,0,00,02,00,01*62e7c073
#BESTPOSA,UNKNOWN,0,86.0,FINESTEERING,2062,431790.000,02000020,b1f6,32768;SOL_COMPUTED,SINGLE,48.34713825864,-123.58823082565,32.4110,-18.9000,WGS84,6.6600,4.4570,8.7472,,0.000,0.000,9,9,9,0,00,02,00,01*8b207148
#BESTPOSA,UNKNOWN,0,87.5,FINESTEERING,2062,431791.000,02000020,b1f6,32768;SOL_COMPUTED,SINGLE,48.34706045568,-123.58832149605,33.2503,-18.9000,WGS84,6.6311,4.4431,8.5897,,0.000,0.000,9,9,9,0,00,02,00,01*23fb97af
#BESTPOSA,UNKNOWN,0,85.5,FINESTEERING,2062,431792.000,02000020,b1f6,32768;SOL_COMPUTED,SINGLE,48.34698196420,-123.58841941531,32.1906,-18.9000,WGS84,6.4750,4.3599,8.3722,,0.000,0.000,9,9,9,0,00,02,00,01*5b519e43
#BESTPOSA,UNKNOWN,0,86.0,FINESTEERING,2062,431793.000,02000020,b1f6,32768;SOL_COMPUTED,SINGLE,48.34690991770,-123.58854861541,31.8362,-18.9000,WGS84,6.1903,3.9702,7.3016,,0.000,0.000,9,9,9,0,00,02,00,01*bfc32f5d
#BESTPOSA,UNKNOWN,0,86.0,FINESTEERING,2062,431794.000,02000020,b1f6,32768;SOL_COMPUTED,SINGLE,48.34684122249,-123.58868756552,32.0129,-18.9000,WGS84,5.7572,3.6805,6.7891,,0.000,0.000,9,9,9,0,00,02,00,01*3801e365
#BESTPOSA,UNKNOWN,0,87.5,FINESTEERING,2062,431795.000,02000020,b1f6,32768;SOL_COMPUTED,SINGLE,48.34679316087,-123.58883864392,32.9607,-18.9000,WGS84,4.9267,3.5404,6.3866,,0.000,0.000,9,9,9,0,00,02,00,01*af08cd51
#BESTPOSA,UNKNOWN,0,87.0,FINESTEERING,2062,431796.000,02000020,b1f6,32768;SOL_COMPUTED,SINGLE,48.34674486273,-123.58900950950,34.8245,-18.9000,WGS84,4.7980,3.4479,6.2269,,0.000,0.000,9,9,9,0,00,02,00,01*46c74bdd
#BESTPOSA,UNKNOWN,0,87.5,FINESTEERING,2062,431797.000,02000020,b1f6,32768;SOL_COMPUTED,SINGLE,48.34669738681,-123.58917485031,36.1214,-18.9000,WGS84,4.7096,3.4234,6.2413,,0.000,0.000,9,9,9,0,00,02,00,01*e25e649b
#BESTPOSA,UNKNOWN,0,87.0,FINESTEERING,2062,431798.000,02000020,b1f6,32768;SOL_COMPUTED,SINGLE,48.34665599762,-123.58934184131,37.6788,-18.9000,WGS84,4.5632,3.3425,6.0720,,0.000,0.000,9,9,9,0,00,02,00,01*bb0afa15
#BESTPOSA,UNKNOWN,0,87.5,FINESTEERING,2062,431799.000,02000020,b1f6,32768;SOL_COMPUTED,SINGLE,48.34661485055,-123.58950241241,38.6360,-18.9000,WGS84,4.1503,3.0414,5.2740,,0.000,0.000,9,9,9,0,00,02,00,01*50435743
#BESTPOSA,UNKNOWN,0,87.0,FINESTEERING,2062,431800.000,02000020,b1f6,32768;SOL_COMPUTED,SINGLE,48.34657177445,-123.58966030841,39.3779,-18.9000,WGS84,4.4547,3.0913,5.1947,,0.000,0.000,9,9,9,0,00,02,00,01*98b7a51d
#BESTPOSA,UNKNOWN,0,87.0,FINESTEERING,2062,431801.000,02000020,b1f6,32768;SOL_COMPUTED,SINGLE,48.34651689412,-123.58981116499,41.0418,-18.9000,WGS84,4.5874,3.2749,5.1726,,0.000,0.000,9,9,9,0,00,02,00,01*0e66af7f
#BESTPOSA,UNKNOWN,0,87.5,FINESTEERING,2062,431802.000,02000020,b1f6,32768;SOL_COMPUTED,SINGLE,48.34646616252,-123.58996626864,42.4119,-18.9000,WGS84,4.6157,3.3164,5.2161,,0.000,0.000,9,9,9,0,00,02,00,01*ee540848
#BESTPOSA,UNKNOWN,0,87.0,FINESTEERING,2062,431803.000,02000020,b1f6,32768;SOL_COMPUTED,SINGLE,48.34640846048,-123.59011351699,44.7772,-18.9000,WGS84,4.8250,3.4573,5.3080,,0.000,0.000,9,9,9,0,00,02,00,01*b19deb45
#BESTPOSA,UNKNOWN,0,86.0,FINESTEERING,2062,431804.000,02000020,b1f6,32768;SOL_COMPUTED,SINGLE,48.34633271699,-123.59024162698,45.2053,-18.9000,WGS84,5.9559,4.2440,5.8347,,0.000,0.000,8,8,8,0,00,02,00,01*4cabd9e2
#BESTPOSA,UNKNOWN,0,85.5,FINESTEERING,2062,431805.000,02000020,b1f6,32768;SOL_COMPUTED,SINGLE,48.34625654674,-123.59036774629,46.1749,-18.9000,WGS84,5.7890,4.0749,6.2167,,0.000,0.000,9,9,9,0,00,02,00,01*99bff301
#BESTPOSA,UNKNOWN,0,85.5,FINESTEERING,2062,431806.000,02000020,b1f6,32768;SOL_COMPUTED,SINGLE,48.34617751698,-123.59048940653,46.8553,-18.9000,WGS84,5.5286,3.9916,6.1998,,0.000,0.000,9,9,9,0,00,02,00,01*efe55bdd
#BESTPOSA,UNKNOWN,0,87.0,FINESTEERING,2062,431807.000,02000020,b1f6,32768;SOL_COMPUTED,SINGLE,48.34609120097,-123.59059732170,48.3696,-18.9000,WGS84,5.4189,4.1137,6.3074,,0.000,0.000,8,8,8,0,00,02,00,01*b065fc79
#BESTPOSA,UNKNOWN,0,86.5,FINESTEERING,2062,431808.000,02000020,b1f6,32768;SOL_COMPUTED,SINGLE,48.34601228013,-123.59069977518,49.5458,-18.9000,WGS84,5.2682,3.9549,6.0432,,0.000,0.000,9,9,9,0,00,02,00,01*2df7133d
#BESTPOSA,UNKNOWN,0,86.5,FINESTEERING,2062,431809.000,02000020,b1f6,32768;SOL_COMPUTED,SINGLE,48.34593828581,-123.59079844389,51.0996,-18.9000,WGS84,5.0890,3.8281,5.1835,,0.000,0.000,9,9,9,0,00,02,00,01*b10e898e
#BESTPOSA,UNKNOWN,0,87.0,FINESTEERING,2062,431810.000,02000020,b1f6,32768;SOL_COMPUTED,SINGLE,48.34586883631,-123.59089837833,52.0775,-18.9000,WGS84,5.0796,3.8329,5.0282,,0.000,0.000,9,9,9,0,00,02,00,01*513f4ce6
#BESTPOSA,UNKNOWN,0,87.5,FINESTEERING,2062,431811.000,02000020,b1f6,32768;SOL_COMPUTED,SINGLE,48.34581469196,-123.59102398198,52.9035,-18.9000,WGS84,4.8257,3.6613,5.2412,,0.000,0.000,9,9,9,0,00,02,00,01*d10b6c5b
#BESTPOSA,UNKNOWN,0,87.5,FINESTEERING,2062,431812.000,02000020,b1f6,32768;SOL_COMPUTED,SINGLE,48.34578219263,-123.59117180378,54.4273,-18.9000,WGS84,4.7640,3.5858,5.1351,,0.000,0.000,9,9,9,0,00,02,00,01*8b2762e3
#BESTPOSA,UNKNOWN,0,80.0,FINESTEERING,2062,431813.000,02000020,b1f6,32768;SOL_COMPUTED,SINGLE,48.34575395107,-123.59132319504,55.2816,-18.9000,WGS84,5.5037,3.6401,6.1999,,0.000,0.000,9,9,9,0,00,02,00,01*c1ecb661
#BESTPOSA,UNKNOWN,0,86.5,FINESTEERING,2062,431814.000,02000020,b1f6,32768;SOL_COMPUTED,SINGLE,48.34573021763,-123.59146799173,56.3859,-18.9000,WGS84,5.3092,3.4543,6.0245,,0.000,0.000,9,9,9,0,00,02,00,01*b4996ddc
#BESTPOSA,UNKNOWN,0,87.0,FINESTEERING,2062,431815.000,02000020,b1f6,32768;SOL_COMPUTED,SINGLE,48.34571728760,-123.59161762962,57.8336,-18.9000,WGS84,5.1663,3.3738,5.9048,,0.000,0.000,9,9,9,0,00,02,00,01*717a4a7a
#BESTPOSA,UNKNOWN,0,86.5,FINESTEERING,2062,431816.000,02000020,b1f6,32768;SOL_COMPUTED,SINGLE,48.34569790214,-123.59175299655,59.2097,-18.9000,WGS84,5.2297,3.3928,5.7884,,0.000,0.000,9,9,9,0,00,02,00,01*89e1c7aa
#BESTPOSA,UNKNOWN,0,87.0,FINESTEERING,2062,431817.000,02000020,b1f6,32768;SOL_COMPUTED,SINGLE,48.34568488826,-123.59189454912,59.6967,-18.9000,WGS84,5.0320,3.2516,5.7449,,0.000,0.000,9,9,9,0,00,02,00,01*f8d973d4
#BESTPOSA,UNKNOWN,0,87.0,FINESTEERING,2062,431818.000,02000020,b1f6,32768;SOL_COMPUTED,SINGLE,48.34566026553,-123.59202924531,59.8171,-18.9000,WGS84,5.1430,3.1569,6.4443,,0.000,0.000,9,9,9,0,00,02,00,01*7da1ba96
#BESTPOSA,UNKNOWN,0,87.5,FINESTEERING,2062,431819.000,02000020,b1f6,32768;SOL_COMPUTED,SINGLE,48.34562285025,-123.59216612125,60.0835,-18.9000,WGS84,5.0000,3.0280,6.3442,,0.000,0.000,8,8,8,0,00,02,00,01*f14b89bf
#BESTPOSA,UNKNOWN,0,86.5,FINESTEERING,2062,431820.000,02000020,b1f6,32768;SOL_COMPUTED,SINGLE,48.34558457751,-123.59230070783,60.1982,-18.9000,WGS84,4.9913,2.9415,6.1767,,0.000,0.000,9,9,9,0,00,02,00,01*f03dd3fa
#BESTPOSA,UNKNOWN,0,86.5,FINESTEERING,2062,431821.000,02000020,b1f6,32768;SOL_COMPUTED,SINGLE,48.34553231363,-123.59243327131,60.6002,-18.9000,WGS84,4.9234,3.5246,7.1342,,0.000,0.000,8,8,8,0,00,02,00,01*8e495285
#BESTPOSA,UNKNOWN,0,86.0,FINESTEERING,2062,431822.000,02000020,b1f6,32768;SOL_COMPUTED,SINGLE,48.34545794786,-123.59254794234,61.4735,-18.9000,WGS84,4.8450,3.4282,7.0197,,0.000,0.000,8,8,8,0,00,02,00,01*ba75fcc0
#BESTPOSA,UNKNOWN,0,86.0,FINESTEERING,2062,431823.000,02000020,b1f6,32768;SOL_COMPUTED,SINGLE,48.34537599702,-123.59265060149,62.8408,-18.9000,WGS84,4.7604,3.3467,6.8032,,0.000,0.000,9,9,9,0,00,02,00,01*62359fd0
#BESTPOSA,UNKNOWN,0,86.5,FINESTEERING,2062,431824.000,02000020,b1f6,32768;SOL_COMPUTED,SINGLE,48.34529205547,-123.59274908755,64.1117,-18.9000,WGS84,4.8848,3.4295,6.9597,,0.000,0.000,8,8,8,0,00,02,00,01*055644cf
#BESTPOSA,UNKNOWN,0,86.0,FINESTEERING,2062,431825.000,02000020,b1f6,32768;SOL_COMPUTED,SINGLE,48.34519504234,-123.59283234852,66.4648,-18.9000,WGS84,5.0586,4.3194,7.0435,,0.000,0.000,8,8,8,0,00,02,00,01*19bdd4a2
#BESTPOSA,UNKNOWN,0,86.5,FINESTEERING,2062,431826.000,02000020,b1f6,32768;SOL_COMPUTED,SINGLE,48.34512000305,-123.59293737283,66.4858,-18.9000,WGS84,5.1181,4.1037,6.4134,,0.000,0.000,9,9,9,0,00,02,00,01*297e5169
#BESTPOSA,UNKNOWN,0,85.0,FINESTEERING,2062,431827.000,02000020,b1f6,32768;SOL_COMPUTED,SINGLE,48.34504023471,-123.59304389552,68.1057,-18.9000,WGS84,4.7223,3.9029,6.3891,,0.000,0.000,9,9,9,0,00,02,00,01*0ec13ba3
#BESTPOSA,UNKNOWN,0,86.0,FINESTEERING,2062,431828.000,02000020,b1f6,32768;SOL_COMPUTED,SINGLE,48.34493261063,-123.59312729044,67.2295,-18.9000,WGS84,4.6458,3.8153,6.3308,,0.000,0.000,9,9,9,0,00,02,00,01*bb97b59b
#BESTPOSA,UNKNOWN,0,86.5,FINESTEERING,2062,431829.000,02000020,b1f6,32768;SOL_COMPUTED,SINGLE,48.34484354004,-123.59323803866,66.8674,-18.9000,WGS84,4.5028,3.6633,6.0482,,0.000,0.000,9,9,9,0,00,02,00,01*12056ae7
#BESTPOSA,UNKNOWN,0,86.5,FINESTEERING,2062,431830.000,02000020,b1f6,32768;SOL_COMPUTED,SINGLE,48.34474319291,-123.59334099261,67.3650,-18.9000,WGS84,5.4155,4.5002,6.2988,,0.000,0.000,9,9,9,0,00,02,00,01*cd0f478d
#BESTPOSA,UNKNOWN,0,87.0,FINESTEERING,2062,431831.000,02000020,b1f6,32768;SOL_COMPUTED,SINGLE,48.34465558858,-123.59346547252,66.4435,-18.9000,WGS84,5.7145,4.7212,6.2607,,0.000,0.000,8,8,8,0,00,02,00,01*cc791522
#BESTPOSA,UNKNOWN,0,86.0,FINESTEERING,2062,431832.000,02000020,b1f6,32768;SOL_COMPUTED,SINGLE,48.34456691105,-123.59359240507,66.1251,-18.9000,WGS84,5.2363,4.1256,5.3204,,0.000,0.000,9,9,9,0,00,02,00,01*f3cf8805
#BESTPOSA,UNKNOWN,0,87.0,FINESTEERING,2062,431833.000,02000020,b1f6,32768;SOL_COMPUTED,SINGLE,48.34448068365,-123.59372234968,65.9719,-18.9000,WGS84,4.9532,3.9392,5.1204,,0.000,0.000,9,9,9,0,00,02,00,01*992391e7
#BESTPOSA,UNKNOWN,0,87.0,FINESTEERING,2062,431834.000,02000020,b1f6,32768;SOL_COMPUTED,SINGLE,48.34440164252,-123.59386408722,65.8352,-18.9000,WGS84,5.0746,4.0247,4.9817,,0.000,0.000,9,9,9,0,00,02,00,01*85c55b95
#BESTPOSA,UNKNOWN,0,87.0,FINESTEERING,2062,431835.000,02000020,b1f6,32768;SOL_COMPUTED,SINGLE,48.34433970730,-123.59402216906,65.5853,-18.9000,WGS84,4.9921,3.9616,4.8298,,0.000,0.000,9,9,9,0,00,02,00,01*70e87af3
#BESTPOSA,UNKNOWN,0,87.5,FINESTEERING,2062,431836.000,02000020,b1f6,32768;SOL_COMPUTED,SINGLE,48.34428151748,-123.59418141103,65.1423,-18.9000,WGS84,5.2063,4.0918,4.7324,,0.000,0.000,9,9,9,0,00,02,00,01*a6ded306
#BESTPOSA,UNKNOWN,0,87.0,FINESTEERING,2062,431837.000,02000020,b1f6,32768;SOL_COMPUTED,SINGLE,48.34423077004,-123.59434634332,64.7436,-18.9000,WGS84,6.3662,4.7074,4.9160,,0.000,0.000,8,8,8,0,00,02,00,01*0bdb9e3d
#BESTPOSA,UNKNOWN,0,87.0,FINESTEERING,2062,431838.000,02000020,b1f6,32768;SOL_COMPUTED,SINGLE,48.34418264296,-123.59451573463,64.4314,-18.9000,WGS84,5.8814,4.3311,4.7347,,0.000,0.000,9,9,9,0,00,02,00,01*2542635a
#BESTPOSA,UNKNOWN,0,87.0,FINESTEERING,2062,431839.000,02000020,b1f6,32768;SOL_COMPUTED,SINGLE,48.34412327780,-123.59467324031,63.7607,-18.9000,WGS84,5.4423,4.0357,4.5532,,0.000,0.000,9,9,9,0,00,02,00,01*f6144ae1
#BESTPOSA,UNKNOWN,0,87.0,FINESTEERING,2062,431840.000,02000020,b1f6,32768;SOL_COMPUTED,SINGLE,48.34406242219,-123.59482836999,62.4046,-18.9000,WGS84,5.3158,3.8702,4.5977,,0.000,0.000,9,9,9,0,00,02,00,01*346cf561
#BESTPOSA,UNKNOWN,0,87.5,FINESTEERING,2062,431841.000,02000020,b1f6,32768;SOL_COMPUTED,SINGLE,48.34400132160,-123.59498540224,60.5644,-18.9000,WGS84,5.4019,3.9726,4.5012,,0.000,0.000,9,9,9,0,00,02,00,01*5764ac69
#BESTPOSA,UNKNOWN,0,86.5,FINESTEERING,2062,431842.000,02000020,b1f6,32768;SOL_COMPUTED,SINGLE,48.34394971315,-123.59515090752,58.2656,-18.9000,WGS84,5.2262,3.9108,4.9772,,0.000,0.000,9,9,9,0,00,02,00,01*17cbe94a
#BESTPOSA,UNKNOWN,0,87.5,FINESTEERING,2062,431843.000,02000020,b1f6,32768;SOL_COMPUTED,SINGLE,48.34389152654,-123.59529454404,56.5476,-18.9000,WGS84,5.1193,3.8223,4.9560,,0.000,0.000,9,9,9,0,00,02,00,01*b9af9a7b
#BESTPOSA,UNKNOWN,0,87.5,FINESTEERING,2062,431844.000,02000020,b1f6,32768;SOL_COMPUTED,SINGLE,48.34384039691,-123.59543596155,54.6739,-18.9000,WGS84,5.0650,3.7898,4.9511,,0.000,0.000,9,9,9,0,00,02,00,01*9b873f48
#BESTPOSA,UNKNOWN,0,87.0,FINESTEERING,2062,431845.000,02000020,b1f6,32768;SOL_COMPUTED,SINGLE,48.34378176633,-123.59555180575,53.5608,-18.9000,WGS84,5.0097,3.7401,4.9627,,0.000,0.000,9,9,9,0,00,02,00,01*be4f35e0
#BESTPOSA,UNKNOWN,0,87.5,FINESTEERING,2062,431846.000,02000020,b1f6,32768;SOL_COMPUTED,SINGLE,48.34369076093,-123.59562763718,52.4980,-18.9000,WGS84,6.2676,4.8295,5.2041,,0.000,0.000,8,8,8,0,00,02,00,01*c0725290
#BESTPOSA,UNKNOWN,0,87.0,FINESTEERING,2062,431847.000,02000020,b1f6,32768;SOL_COMPUTED,SINGLE,48.34360215384,-123.59570156208,51.1871,-18.9000,WGS84,5.8159,4.4922,5.0084,,0.000,0.000,9,9,9,0,00,02,00,01*3380c2bd
#BESTPOSA,UNKNOWN,0,86.0,FINESTEERING,2062,431848.000,02000020,b1f6,32768;SOL_COMPUTED,SINGLE,48.34349399499,-123.59574504032,50.1219,-18.9000,WGS84,5.5754,4.4404,6.7716,,0.000,0.000,9,9,9,0,00,02,00,01*48a505bf
#BESTPOSA,UNKNOWN,0,86.5,FINESTEERING,2062,431849.000,02000020,b1f6,32768;SOL_COMPUTED,SINGLE,48.34337478054,-123.59578816987,48.9279,-18.9000,WGS84,5.4800,4.5431,8.2483,,0.000,0.000,9,9,9,0,00,02,00,01*f2fe1794
#BESTPOSA,UNKNOWN,0,87.0,FINESTEERING,2062,431850.000,02000020,b1f6,32768;SOL_COMPUTED,SINGLE,48.34324746797,-123.59582987907,46.9697,-18.9000,WGS84,5.9914,4.4601,9.1988,,0.000,0.000,8,8,8,0,00,02,00,01*27798646
#BESTPOSA,UNKNOWN,0,86.5,FINESTEERING,2062,431851.000,02000020,b1f6,32768;SOL_COMPUTED,SINGLE,48.34311369375,-123.59587265219,44.8946,-18.9000,WGS84,6.1420,4.5253,9.3772,,0.000,0.000,8,8,8,0,00,02,00,01*6c0a5047
#BESTPOSA,UNKNOWN,0,86.0,FINESTEERING,2062,431852.000,02000020,b1f6,32768;SOL_COMPUTED,SINGLE,48.34298411375,-123.59594135642,43.8272,-18.9000,WGS84,6.0326,4.4660,9.0565,,0.000,0.000,9,9,9,0,00,02,00,01*2036ff56
#BESTPOSA,UNKNOWN,0,86.5,FINESTEERING,2062,431853.000,02000020,b1f6,32768;SOL_COMPUTED,SINGLE,48.34284711108,-123.59602014458,42.3959,-18.9000,WGS84,6.0361,4.5160,9.4588,,0.000,0.000,7,7,7,0,00,02,00,01*abb0ad24
#BESTPOSA,UNKNOWN,0,86.0,FINESTEERING,2062,431854.000,02000020,b1f6,32768;SOL_COMPUTED,SINGLE,48.34271464217,-123.59611620368,42.5481,-18.9000,WGS84,6.0321,4.4096,9.0280,,0.000,0.000,9,9,9,0,00,02,00,01*9f81d204
#BESTPOSA,UNKNOWN,0,86.0,FINESTEERING,2062,431855.000,02000020,b1f6,32768;SOL_COMPUTED,SINGLE,48.34258648275,-123.59620969754,42.5519,-18.9000,WGS84,6.1305,4.4121,9.0182,,0.000,0.000,8,8,8,0,00,02,00,01*e4fc6f14
#BESTPOSA,UNKNOWN,0,85.5,FINESTEERING,2062,431856.000,02000020,b1f6,32768;SOL_COMPUTED,SINGLE,48.34247232333,-123.59630195689,44.9017,-18.9000,WGS84,5.8535,4.2874,8.5965,,0.000,0.000,9,9,9,0,00,02,00,01*e8e60b51
#BESTPOSA,UNKNOWN,0,86.0,FINESTEERING,2062,431857.000,02000020,b1f6,32768;SOL_COMPUTED,SINGLE,48.34234834498,-123.59639623964,42.8884,-18.9000,WGS84,5.9747,4.4596,8.7416,,0.000,0.000,8,8,8,0,00,02,00,01*f6dded3c
#BESTPOSA,UNKNOWN,0,85.5,FINESTEERING,2062,431858.000,02000020,b1f6,32768;SOL_COMPUTED,SINGLE,48.34222430243,-123.59647302683,44.5458,-18.9000,WGS84,5.9192,4.3136,8.4049,,0.000,0.000,9,9,9,0,00,02,00,01*a48cb985
#BESTPOSA,UNKNOWN,0,84.5,FINESTEERING,2062,431859.000,02000020,b1f6,32768;SOL_COMPUTED,SINGLE,48.34209961702,-123.59654363031,45.4647,-18.9000,WGS84,5.7671,4.1247,8.0665,,0.000,0.000,9,9,9,0,00,02,00,01*1908e21e
#BESTPOSA,UNKNOWN,0,85.5,FINESTEERING,2062,431860.000,02000020,b1f6,32768;SOL_COMPUTED,SINGLE,48.34197810663,-123.59661553436,44.8784,-18.9000,WGS84,5.7135,4.0171,7.8930,,0.000,0.000,9,9,9,0,00,02,00,01*66efa837
#BESTPOSA,UNKNOWN,0,87.5,FINESTEERING,2062,431861.000,02000020,b1f6,32768;SOL_COMPUTED,SINGLE,48.34185080857,-123.59668382823,44.6414,-18.9000,WGS84,5.6757,4.3121,8.0896,,0.000,0.000,9,9,9,0,00,02,00,01*267a25da
#BESTPOSA,UNKNOWN,0,87.0,FINESTEERING,2062,431862.000,02000020,b1f6,32768;SOL_COMPUTED,SINGLE,48.34172867099,-123.59676127094,44.4954,-18.9000,WGS84,5.5203,4.1901,7.8560,,0.000,0.000,9,9,9,0,00,02,00,01*c8058db8
#BESTPOSA,UNKNOWN,0,87.0,FINESTEERING,2062,431863.000,02000020,b1f6,32768;SOL_COMPUTED,SINGLE,48.34163465254,-123.59687124055,47.6553,-18.9000,WGS84,5.7099,4.3271,8.0481,,0.000,0.000,9,9,9,0,00,02,00,01*f23634e4
#BESTPOSA,UNKNOWN,0,86.5,FINESTEERING,2062,431864.000,02000020,b1f6,32768;SOL_COMPUTED,SINGLE,48.34151202250,-123.59696567859,47.2855,-18.9000,WGS84,5.4237,4.1196,7.6253,,0.000,0.000,9,9,9,0,00,02,00,01*3ccd2497
#BESTPOSA,UNKNOWN,0,86.5,FINESTEERING,2062,431865.000,02000020,b1f6,32768;SOL_COMPUTED,SINGLE,48.34138782639,-123.59706189037,46.8463,-18.9000,WGS84,5.2787,4.0771,7.4358,,0.000,0.000,9,9,9,0,00,02,00,01*d365ec5e
#BESTPOSA,UNKNOWN,0,86.0,FINESTEERING,2062,431866.000,02000020,b1f6,32768;SOL_COMPUTED,SINGLE,48.34127058072,-123.59716507043,46.2151,-18.9000,WGS84,6.4049,4.8448,8.7062,,0.000,0.000,9,9,9,0,00,02,00,01*86340f3d
#BESTPOSA,UNKNOWN,0,87.5,FINESTEERING,2062,431867.000,02000020,b1f6,32768;SOL_COMPUTED,SINGLE,48.34114757557,-123.59725917042,45.4841,-18.9000,WGS84,6.5525,4.9430,8.8894,,0.000,0.000,8,8,8,0,00,02,00,01*ed325af2
#BESTPOSA,UNKNOWN,0,86.5,FINESTEERING,2062,431868.000,02000020,b1f6,32768;SOL_COMPUTED,SINGLE,48.34103798671,-123.59736921636,45.1004,-18.9000,WGS84,6.0127,4.6235,7.6719,,0.000,0.000,9,9,9,0,00,02,00,01*b7507ab4
#BESTPOSA,UNKNOWN,0,86.5,FINESTEERING,2062,431869.000,02000020,b1f6,32768;SOL_COMPUTED,SINGLE,48.34092820227,-123.59748262231,43.2586,-18.9000,WGS84,5.8246,4.5601,8.1257,,0.000,0.000,8,8,8,0,00,02,00,01*e57b0181
#BESTPOSA,UNKNOWN,0,86.0,FINESTEERING,2062,431870.000,02000020,b1f6,32768;SOL_COMPUTED,SINGLE,48.34082130177,-123.59760823620,42.7823,-18.9000,WGS84,5.6328,4.4059,8.0700,,0.000,0.000,9,9,9,0,00,02,00,01*63839c0e
#BESTPOSA,UNKNOWN,0,86.0,FINESTEERING,2062,431871.000,02000020,b1f6,32768;SOL_COMPUTED,SINGLE,48.34071458581,-123.59773724702,42.1744,-18.9000,WGS84,5.1779,3.7276,5.9827,,0.000,0.000,9,9,9,0,00,02,00,01*cf3c8bcf
#BESTPOSA,UNKNOWN,0,86.5,FINESTEERING,2062,431872.000,02000020,b1f6,32768;SOL_COMPUTED,SINGLE,48.34059935148,-123.59785928709,40.8047,-18.9000,WGS84,4.9835,3.7073,5.5952,,0.000,0.000,9,9,9,0,00,02,00,01*2d144446
#BESTPOSA,UNKNOWN,0,79.5,FINESTEERING,2062,431873.000,02000020,b1f6,32768;SOL_COMPUTED,SINGLE,48.34048583832,-123.59798516931,40.5739,-18.9000,WGS84,5.2327,3.8929,5.7594,,0.000,0.000,9,9,9,0,00,02,00,01*bd3f6b67
#BESTPOSA,UNKNOWN,0,87.0,FINESTEERING,2062,431874.000,02000020,b1f6,32768;SOL_COMPUTED,SINGLE,48.34038090215,-123.59811995208,39.2720,-18.9000,WGS84,5.2266,4.0623,6.6408,,0.000,0.000,9,9,9,0,00,02,00,01*aebf30a1
#BESTPOSA,UNKNOWN,0,86.5,FINESTEERING,2062,431875.000,02000020,b1f6,32768;SOL_COMPUTED,SINGLE,48.34027823979,-123.59824462536,38.1022,-18.9000,WGS84,5.1633,3.9823,6.7882,,0.000,0.000,9,9,9,0,00,02,00,01*bd5bfc8d
#BESTPOSA,UNKNOWN,0,86.5,FINESTEERING,2062,431876.000,02000020,b1f6,32768;SOL_COMPUTED,SINGLE,48.34018095287,-123.59837252710,36.3121,-18.9000,WGS84,5.0767,3.9314,6.9872,,0.000,0.000,8,8,8,0,00,02,00,01*f7691375
#BESTPOSA,UNKNOWN,0,87.5,FINESTEERING,2062,431877.000,02000020,b1f6,32768;SOL_COMPUTED,SINGLE,48.34008400081,-123.59849759305,34.5230,-18.9000,WGS84,5.0108,4.5291,7.0609,,0.000,0.000,8,8,8,0,00,02,00,01*56e3358d
#BESTPOSA,UNKNOWN,0,87.0,FINESTEERING,2062,431878.000,02000020,b1f6,32768;SOL_COMPUTED,SINGLE,48.34000513230,-123.59863858906,34.6508,-18.9000,WGS84,5.0353,4.4541,5.8580,,0.000,0.000,9,9,9,0,00,02,00,01*e1f0ac25
#BESTPOSA,UNKNOWN,0,87.0,FINESTEERING,2062,431879.000,02000020,b1f6,32768;SOL_COMPUTED,SINGLE,48.33992819835,-123.59878365920,32.9838,-18.9000,WGS84,4.7838,3.0367,5.0894,,0.000,0.000,9,9,9,0,00,02,00,01*b1024528
#BESTPOSA,UNKNOWN,0,86.5,FINESTEERING,2062,431880.000,02000020,b1f6,32768;SOL_COMPUTED,SINGLE,48.33986380451,-123.59894684523,32.1134,-18.9000,WGS84,4.6033,2.8552,5.1710,,0.000,0.000,9,9,9,0,00,02,00,01*b628828a
#BESTPOSA,UNKNOWN,0,87.0,FINESTEERING,2062,431881.000,02000020,b1f6,32768;SOL_COMPUTED,SINGLE,48.33981337340,-123.59911188123,31.7383,-18.9000,WGS84,4.6164,2.8378,5.0058,,0.000,0.000,9,9,9,0,00,02,00,01*e890ef37
#BESTPOSA,UNKNOWN,0,86.0,FINESTEERING,2062,431882.000,02000020,b1f6,32768;SOL_COMPUTED,SINGLE,48.33979340254,-123.59929778000,29.4143,-18.9000,WGS84,4.7818,2.8003,5.9348,,0.000,0.000,9,9,9,0,00,02,00,01*5bd82229
#BESTPOSA,UNKNOWN,0,87.0,FINESTEERING,2062,431883.000,02000020,b1f6,32768;SOL_COMPUTED,SINGLE,48.33978154106,-123.59947377472,30.0759,-18.9000,WGS84,4.7778,2.7497,5.8366,,0.000,0.000,9,9,9,0,00,02,00,01*31f32fd8
#BESTPOSA,UNKNOWN,0,86.5,FINESTEERING,2062,431884.000,02000020,b1f6,32768;SOL_COMPUTED,SINGLE,48.33978825486,-123.59964100638,30.2095,-18.9000,WGS84,5.9563,3.1416,6.1228,,0.000,0.000,9,9,9,0,00,02,00,01*39a64b2e
#BESTPOSA,UNKNOWN,0,86.0,FINESTEERING,2062,431885.000,02000020,b1f6,32768;SOL_COMPUTED,SINGLE,48.33983531208,-123.59982239524,29.2179,-18.9000,WGS84,5.7743,3.0786,5.9705,,0.000,0.000,9,9,9,0,00,02,00,01*71f83fad
#BESTPOSA,UNKNOWN,0,84.5,FINESTEERING,2062,431886.000,02000020,b1f6,32768;SOL_COMPUTED,SINGLE,48.33988813190,-123.59998708975,28.5427,-18.9000,WGS84,5.3636,3.6676,6.5805,,0.000,0.000,9,9,9,0,00,02,00,01*f363925a
#BESTPOSA,UNKNOWN,0,86.5,FINESTEERING,2062,431887.000,02000020,b1f6,32768;SOL_COMPUTED,SINGLE,48.33994061762,-123.60015108081,29.3504,-18.9000,WGS84,4.9863,3.3570,6.2465,,0.000,0.000,9,9,9,0,00,02,00,01*29288b28
#BESTPOSA,UNKNOWN,0,87.5,FINESTEERING,2062,431888.000,02000020,b1f6,32768;SOL_COMPUTED,SINGLE,48.33998974179,-123.60031219128,29.9783,-18.9000,WGS84,5.8778,3.6995,7.0773,,0.000,0.000,9,9,9,0,00,02,00,01*15aa2e4d
#BESTPOSA,UNKNOWN,0,86.5,FINESTEERING,2062,431889.000,02000020,b1f6,32768;SOL_COMPUTED,SINGLE,48.34004967013,-123.60046360378,28.8173,-18.9000,WGS84,6.4529,3.9181,8.0620,,0.000,0.000,8,8,8,0,00,02,00,01*b10153a1
#BESTPOSA,UNKNOWN,0,86.0,FINESTEERING,2062,431890.000,02000020,b1f6,32768;SOL_COMPUTED,SINGLE,48.34008626047,-123.60060635747,29.4749,-18.9000,WGS84,6.2685,3.9158,7.9577,,0.000,0.000,9,9,9,0,00,02,00,01*52fe5808
#BESTPOSA,UNKNOWN,0,86.0,FINESTEERING,2062,431891.000,02000020,b1f6,32768;SOL_COMPUTED,SINGLE,48.34009866753,-123.60074018719,30.5131,-18.9000,WGS84,5.7841,3.8226,7.5247,,0.000,0.000,9,9,9,0,00,02,00,01*0de5d1f2
#BESTPOSA,UNKNOWN,0,87.0,FINESTEERING,2062,431892.000,02000020,b1f6,32768;SOL_COMPUTED,SINGLE,48.34007680135,-123.60088835009,30.9077,-18.9000,WGS84,6.1179,3.9873,8.1470,,0.000,0.000,9,9,9,0,00,02,00,01*fbcdc18d
#BESTPOSA,UNKNOWN,0,86.5,FINESTEERING,2062,431893.000,02000020,b1f6,32768;SOL_COMPUTED,SINGLE,48.34005643259,-123.60103895997,29.5639,-18.9000,WGS84,6.1470,4.0950,8.5242,,0.000,0.000,9,9,9,0,00,02,00,01*81f34251
#BESTPOSA,UNKNOWN,0,85.5,FINESTEERING,2062,431894.000,02000020,b1f6,32768;SOL_COMPUTED,SINGLE,48.33998755720,-123.60117072364,30.0394,-18.9000,WGS84,6.3462,4.2444,8.9188,,0.000,0.000,7,7,7,0,00,02,00,01*0a76fa09
#BESTPOSA,UNKNOWN,0,85.0,FINESTEERING,2062,431895.000,02000020,b1f6,32768;SOL_COMPUTED,SINGLE,48.33992463339,-123.60128801462,28.6454,-18.9000,WGS84,5.7669,3.9804,8.3441,,0.000,0.000,9,9,9,0,00,02,00,01*376c8149
#BESTPOSA,UNKNOWN,0,86.5,FINESTEERING,2062,431896.000,02000020,b1f6,32768;SOL_COMPUTED,SINGLE,48.33983567227,-123.60137114269,29.2781,-18.9000,WGS84,5.9410,4.2405,8.4845,,0.000,0.000,8,8,8,0,00,02,00,01*87da1a11
#BESTPOSA,UNKNOWN,0,86.0,FINESTEERING,2062,431897.000,02000020,b1f6,32768;SOL_COMPUTED,SINGLE,48.33973625424,-123.60142536532,29.3038,-18.9000,WGS84,5.6613,4.1793,8.2592,,0.000,0.000,8,8,8,0,00,02,00,01*fcba7561
#BESTPOSA,UNKNOWN,0,86.0,FINESTEERING,2062,431898.000,02000020,b1f6,32768;SOL_COMPUTED,SINGLE,48.33961281914,-123.60145702140,30.5812,-18.9000,WGS84,6.2922,4.3074,8.7794,,0.000,0.000,9,9,9,0,00,02,00,01*9c234f30
#BESTPOSA,UNKNOWN,0,86.5,FINESTEERING,2062,431899.000,02000020,b1f6,32768;SOL_COMPUTED,SINGLE,48.33950544117,-123.60150881341,30.4883,-18.9000,WGS84,6.0125,4.1593,8.7464,,0.000,0.000,8,8,8,0,00,02,00,01*48c20f35
#BESTPOSA,UNKNOWN,0,85.5,FINESTEERING,2062,431900.000,02000020,b1f6,32768;SOL_COMPUTED,SINGLE,48.33940945723,-123.60156849220,29.3470,-18.9000,WGS84,5.4110,3.9828,8.0287,,0.000,0.000,9,9,9,0,00,02,00,01*5e3f6b9c
#BESTPOSA,UNKNOWN,0,86.5,FINESTEERING,2062,431901.000,02000020,b1f6,32768;SOL_COMPUTED,SINGLE,48.33928593464,-123.60162475416,30.1587,-18.9000,WGS84,5.3082,3.9084,7.7579,,0.000,0.000,9,9,9,0,00,02,00,01*c8369774
#BESTPOSA,UNKNOWN,0,86.5,FINESTEERING,2062,431902.000,02000020,b1f6,32768;SOL_COMPUTED,SINGLE,48.33916578129,-123.60170557943,30.1700,-18.9000,WGS84,5.3149,3.8408,7.6949,,0.000,0.000,9,9,9,0,00,02,00,01*733116aa
#BESTPOSA,UNKNOWN,0,87.0,FINESTEERING,2062,431903.000,02000020,b1f6,32768;SOL_COMPUTED,SINGLE,48.33905686507,-123.60180791136,30.3273,-18.9000,WGS84,5.3810,3.8725,7.6647,,0.000,0.000,9,9,9,0,00,02,00,01*eda1f6d4
#BESTPOSA,UNKNOWN,0,86.5,FINESTEERING,2062,431904.000,02000020,b1f6,32768;SOL_COMPUTED,SINGLE,48.33896966278,-123.60193825326,30.4647,-18.9000,WGS84,5.0852,3.7198,7.3642,,0.000,0.000,9,9,9,0,00,02,00,01*f35c21f5
#BESTPOSA,UNKNOWN,0,86.5,FINESTEERING,2062,431905.000,02000020,b1f6,32768;SOL_COMPUTED,SINGLE,48.33887626593,-123.60205838954,30.0506,-18.9000,WGS84,4.8164,3.6615,6.1522,,0.000,0.000,9,9,9,0,00,02,00,01*f3fdb4d4
#BESTPOSA,UNKNOWN,0,87.0,FINESTEERING,2062,431906.000,02000020,b1f6,32768;SOL_COMPUTED,SINGLE,48.33879892840,-123.60219850102,29.9823,-18.9000,WGS84,4.8745,3.6336,5.9955,,0.000,0.000,9,9,9,0,00,02,00,01*74f12953
#BESTPOSA,UNKNOWN,0,86.5,FINESTEERING,2062,431907.000,02000020,b1f6,32768;SOL_COMPUTED,SINGLE,48.33872855377,-123.60234962788,30.0309,-18.9000,WGS84,4.9864,3.6491,5.8748,,0.000,0.000,9,9,9,0,00,02,00,01*45cb8f3b
#BESTPOSA,UNKNOWN,0,87.0,FINESTEERING,2062,431908.000,02000020,b1f6,32768;SOL_COMPUTED,SINGLE,48.33868495587,-123.60252693046,28.5046,-18.9000,WGS84,5.8472,4.0176,5.9887,,0.000,0.000,8,8,8,0,00,02,00,01*b747ed76
#BESTPOSA,UNKNOWN,0,86.5,FINESTEERING,2062,431909.000,02000020,b1f6,32768;SOL_COMPUTED,SINGLE,48.33864284696,-123.60270537690,27.0777,-18.9000,WGS84,5.5563,3.5631,6.0158,,0.000,0.000,9,9,9,0,00,02,00,01*b5bee0ee
#BESTPOSA,UNKNOWN,0,86.5,FINESTEERING,2062,431910.000,02000020,b1f6,32768;SOL_COMPUTED,SINGLE,48.33860820376,-123.60290031583,25.9263,-18.9000,WGS84,5.1559,3.3502,5.7958,,0.000,0.000,9,9,9,0,00,02,00,01*146ff7b1
#BESTPOSA,UNKNOWN,0,87.0,FINESTEERING,2062,431911.000,02000020,b1f6,32768;SOL_COMPUTED,SINGLE,48.33857384007,-123.60309489663,24.1894,-18.9000,WGS84,5.0389,3.2537,5.6116,,0.000,0.000,9,9,9,0,00,02,00,01*510c376d
#BESTPOSA,UNKNOWN,0,86.5,FINESTEERING,2062,431912.000,02000020,b1f6,32768;SOL_COMPUTED,SINGLE,48.33853073968,-123.60328433805,23.2633,-18.9000,WGS84,5.3128,3.2347,5.9050,,0.000,0.000,9,9,9,0,00,02,00,01*a8224555
#BESTPOSA,UNKNOWN,0,87.5,FINESTEERING,2062,431913.000,02000020,b1f6,32768;SOL_COMPUTED,SINGLE,48.33847803336,-123.60347017531,22.6347,-18.9000,WGS84,5.3442,3.1674,5.8995,,0.000,0.000,9,9,9,0,00,02,00,01*c97e0da4
#BESTPOSA,UNKNOWN,0,87.0,FINESTEERING,2062,431914.000,02000020,b1f6,32768;SOL_COMPUTED,SINGLE,48.33842629629,-123.60365476894,21.4854,-18.9000,WGS84,5.5620,3.0537,6.1656,,0.000,0.000,9,9,9,0,00,02,00,01*35b0eb60
#BESTPOSA,UNKNOWN,0,86.5,FINESTEERING,2062,431915.000,02000020,b1f6,32768;SOL_COMPUTED,SINGLE,48.33837790466,-123.60384115136,19.8908,-18.9000,WGS84,5.6876,2.9696,6.2220,,0.000,0.000,8,8,8,0,00,02,00,01*0bcaab01
#BESTPOSA,UNKNOWN,0,87.0,FINESTEERING,2062,431916.000,02000020,b1f6,32768;SOL_COMPUTED,SINGLE,48.33831515525,-123.60401997197,19.0353,-18.9000,WGS84,5.7557,2.9403,5.8502,,0.000,0.000,8,8,8,0,00,02,00,01*9220118c
#BESTPOSA,UNKNOWN,0,87.0,FINESTEERING,2062,431917.000,02000020,b1f6,32768;SOL_COMPUTED,SINGLE,48.33827132843,-123.60420988121,18.0363,-18.9000,WGS84,5.5668,2.8240,5.6772,,0.000,0.000,9,9,9,0,00,02,00,01*0e02ba20
#BESTPOSA,UNKNOWN,0,86.0,FINESTEERING,2062,431918.000,02000020,b1f6,32768;SOL_COMPUTED,SINGLE,48.33823569047,-123.60440200756,16.8619,-18.9000,WGS84,5.2201,2.6502,5.4726,,0.000,0.000,9,9,9,0,00,02,00,01*83501685
#BESTPOSA,UNKNOWN,0,87.5,FINESTEERING,2062,431919.000,02000020,b1f6,32768;SOL_COMPUTED,SINGLE,48.33820535870,-123.60459538804,15.9425,-18.9000,WGS84,5.5184,2.6548,5.4066,,0.000,0.000,8,8,8,0,00,02,00,01*6c9d40cd
#BESTPOSA,UNKNOWN,0,87.0,FINESTEERING,2062,431920.000,02000020,b1f6,32768;SOL_COMPUTED,SINGLE,48.33818806120,-123.60479381816,15.2095,-18.9000,WGS84,5.0319,2.4733,5.2138,,0.000,0.000,9,9,9,0,00,02,00,01*e1392d9b
#BESTPOSA,UNKNOWN,0,87.0,FINESTEERING,2062,431921.000,02000020,b1f6,32768;SOL_COMPUTED,SINGLE,48.33817974257,-123.60499374886,14.8574,-18.9000,WGS84,5.3291,2.4680,5.9596,,0.000,0.000,7,7,7,0,00,02,00,01*da423347
#BESTPOSA,UNKNOWN,0,86.0,FINESTEERING,2062,431922.000,02000020,b1f6,32768;SOL_COMPUTED,SINGLE,48.33817445743,-123.60518969342,14.9370,-18.9000,WGS84,5.1444,2.3669,5.7409,,0.000,0.000,8,8,8,0,00,02,00,01*cd9bc7fe
#BESTPOSA,UNKNOWN,0,86.5,FINESTEERING,2062,431923.000,02000020,b1f6,32768;SOL_COMPUTED,SINGLE,48.33817113719,-123.60538471374,15.2107,-18.9000,WGS84,4.8364,2.2373,5.5609,,0.000,0.000,8,8,8,0,00,02,00,01*69294187
#BESTPOSA,UNKNOWN,0,85.5,FINESTEERING,2062,431924.000,02000020,b1f6,32768;SOL_COMPUTED,SINGLE,48.33817029674,-123.60557785891,16.2284,-18.9000,WGS84,4.7217,2.1691,5.4589,,0.000,0.000,8,8,8,0,00,02,00,01*ed730824
#BESTPOSA,UNKNOWN,0,86.5,FINESTEERING,2062,431925.000,02000020,b1f6,32768;SOL_COMPUTED,SINGLE,48.33816571780,-123.60576854057,17.3715,-18.9000,WGS84,4.6704,2.1379,5.3838,,0.000,0.000,8,8,8,0,00,02,00,01*82b8d7d2
#BESTPOSA,UNKNOWN,0,86.0,FINESTEERING,2062,431926.000,02000020,b1f6,32768;SOL_COMPUTED,SINGLE,48.33815214674,-123.60595474890,18.7997,-18.9000,WGS84,4.7034,2.1540,5.3913,,0.000,0.000,8,8,8,0,00,02,00,01*fecac9aa
#BESTPOSA,UNKNOWN,0,87.0,FINESTEERING,2062,431927.000,02000020,b1f6,32768;SOL_COMPUTED,SINGLE,48.33813372738,-123.60613694172,19.9706,-18.9000,WGS84,7.3038,3.3476,7.4521,,0.000,0.000,8,8,8,0,00,02,00,01*f954d3a6
#BESTPOSA,UNKNOWN,0,87.5,FINESTEERING,2062,431928.000,02000020,b1f6,32768;SOL_COMPUTED,SINGLE,48.33811391102,-123.60632416461,20.1904,-18.9000,WGS84,8.5332,3.9943,8.4144,,0.000,0.000,8,8,8,0,00,02,00,01*b609f39a
#BESTPOSA,UNKNOWN,0,86.5,FINESTEERING,2062,431929.000,02000020,b1f6,32768;SOL_COMPUTED,SINGLE,48.33807615879,-123.60650701648,21.5164,-18.9000,WGS84,7.6078,3.5636,7.7041,,0.000,0.000,8,8,8,0,00,02,00,01*df9c5de1
#BESTPOSA,UNKNOWN,0,85.5,FINESTEERING,2062,431930.000,02000020,b1f6,32768;SOL_COMPUTED,SINGLE,48.33803843625,-123.60669240790,22.7248,-18.9000,WGS84,7.1591,3.4138,7.3862,,0.000,0.000,9,9,9,0,00,02,00,01*cc43417a
#BESTPOSA,UNKNOWN,0,85.5,FINESTEERING,2062,431931.000,02000020,b1f6,32768;SOL_COMPUTED,SINGLE,48.33800792696,-123.60688315674,22.9863,-18.9000,WGS84,6.9768,3.5105,7.6498,,0.000,0.000,9,9,9,0,00,02,00,01*85661744
#BESTPOSA,UNKNOWN,0,86.5,FINESTEERING,2062,431932.000,02000020,b1f6,32768;SOL_COMPUTED,SINGLE,48.33797957023,-123.60707626277,22.5180,-18.9000,WGS84,6.7072,3.3596,7.2687,,0.000,0.000,9,9,9,0,00,02,00,01*e921c5fc
#BESTPOSA,UNKNOWN,0,79.0,FINESTEERING,2062,431933.000,02000020,b1f6,32768;SOL_COMPUTED,SINGLE,48.33794634560,-123.60726311607,23.0145,-18.9000,WGS84,6.7086,3.3151,7.3125,,0.000,0.000,9,9,9,0,00,02,00,01*307149ca
#BESTPOSA,UNKNOWN,0,87.0,FINESTEERING,2062,431934.000,02000020,b1f6,32768;SOL_COMPUTED,SINGLE,48.33792211250,-123.60744522271,23.3541,-18.9000,WGS84,6.8638,3.3033,7.6164,,0.000,0.000,8,8,8,0,00,02,00,01*58ee38d3
#BESTPOSA,UNKNOWN,0,87.5,FINESTEERING,2062,431935.000,02000020,b1f6,32768;SOL_COMPUTED,SINGLE,48.33791279462,-123.60762771066,23.2567,-18.9000,WGS84,8.0519,3.7956,8.7730,,0.000,0.000,8,8,8,0,00,02,00,01*7a5fd446
#BESTPOSA,UNKNOWN,0,87.0,FINESTEERING,2062,431936.000,02000020,b1f6,32768;SOL_COMPUTED,SINGLE,48.33790572984,-123.60779917455,24.2519,-18.9000,WGS84,8.2604,4.0538,8.4452,,0.000,0.000,8,8,8,0,00,02,00,01*1c9c6d8b
#BESTPOSA,UNKNOWN,0,86.5,FINESTEERING,2062,431937.000,02000020,b1f6,32768;SOL_COMPUTED,SINGLE,48.33793963165,-123.60797794451,25.5663,-18.9000,WGS84,6.2111,2.9794,6.6188,,0.000,0.000,9,9,9,0,00,02,00,01*17e5bbb3
#BESTPOSA,UNKNOWN,0,86.0,FINESTEERING,2062,431938.000,02000020,b1f6,32768;SOL_COMPUTED,SINGLE,48.33797681176,-123.60815155967,26.6775,-18.9000,WGS84,6.3963,2.9130,6.7485,,0.000,0.000,8,8,8,0,00,02,00,01*bebbc318
#BESTPOSA,UNKNOWN,0,86.5,FINESTEERING,2062,431939.000,02000020,b1f6,32768;SOL_COMPUTED,SINGLE,48.33800575807,-123.60832079310,25.3379,-18.9000,WGS84,6.1908,2.8279,6.4060,,0.000,0.000,9,9,9,0,00,02,00,01*0810820b
#BESTPOSA,UNKNOWN,0,86.0,FINESTEERING,2062,431940.000,02000020,b1f6,32768;SOL_COMPUTED,SINGLE,48.33805386157,-123.60849284128,25.2294,-18.9000,WGS84,7.1142,4.2422,8.7927,,0.000,0.000,9,9,9,0,00,02,00,01*83174136
#BESTPOSA,UNKNOWN,0,85.5,FINESTEERING,2062,431941.000,02000020,b1f6,32768;SOL_COMPUTED,SINGLE,48.33809290384,-123.60864348430,27.2982,-18.9000,WGS84,6.8604,4.2693,8.7717,,0.000,0.000,9,9,9,0,00,02,00,01*40e43663
#BESTPOSA,UNKNOWN,0,86.0,FINESTEERING,2062,431942.000,02000020,b1f6,32768;SOL_COMPUTED,SINGLE,48.33813191208,-123.60882243740,26.9363,-18.9000,WGS84,6.8741,4.3953,8.9839,,0.000,0.000,8,8,8,0,00,02,00,01*e18cbc84
#BESTPOSA,UNKNOWN,0,85.5,FINESTEERING,2062,431943.000,02000020,b1f6,32768;SOL_COMPUTED,SINGLE,48.33816403527,-123.60897952956,27.5521,-18.9000,WGS84,7.1767,4.5428,9.5719,,0.000,0.000,9,9,9,0,00,02,00,01*91774943
#BESTPOSA,UNKNOWN,0,85.5,FINESTEERING,2062,431944.000,02000020,b1f6,32768;SOL_COMPUTED,SINGLE,48.33819789886,-123.60916424960,27.2966,-18.9000,WGS84,7.3251,4.4711,9.7547,,0.000,0.000,7,7,7,0,00,02,00,01*32560641
#BESTPOSA,UNKNOWN,0,85.0,FINESTEERING,2062,431945.000,02000020,b1f6,32768;SOL_COMPUTED,SINGLE,48.33820207767,-123.60933526740,28.2292,-18.9000,WGS84,7.0461,4.4125,9.3006,,0.000,0.000,9,9,9,0,00,02,00,01*467525d6
#BESTPOSA,UNKNOWN,0,85.5,FINESTEERING,2062,431946.000,02000020,b1f6,32768;SOL_COMPUTED,SINGLE,48.33821460090,-123.60951819247,30.8821,-18.9000,WGS84,6.7393,4.3428,8.8032,,0.000,0.000,9,9,9,0,00,02,00,01*2127a791
#BESTPOSA,UNKNOWN,0,86.5,FINESTEERING,2062,431947.000,02000020,b1f6,32768;SOL_COMPUTED,SINGLE,48.33817022025,-123.60966297750,33.2302,-18.9000,WGS84,7.7155,4.3363,9.6724,,0.000,0.000,8,8,8,0,00,02,00,01*445c64ce
#BESTPOSA,UNKNOWN,0,85.0,FINESTEERING,2062,431948.000,02000020,b1f6,32768;SOL_COMPUTED,SINGLE,48.33817061195,-123.60982380962,27.8875,-18.9000,WGS84,8.2978,4.1316,9.0057,,0.000,0.000,9,9,9,0,00,02,00,01*d0276b36
#BESTPOSA,UNKNOWN,0,84.5,FINESTEERING,2062,431949.000,02000020,b1f6,32768;SOL_COMPUTED,SINGLE,48.33810872584,-123.60995617245,26.5397,-18.9000,WGS84,7.3785,4.1880,8.6035,,0.000,0.000,9,9,9,0,00,02,00,01*5cbc7160
#BESTPOSA,UNKNOWN,0,85.0,FINESTEERING,2062,431950.000,02000020,b1f6,32768;SOL_COMPUTED,SINGLE,48.33803063321,-123.61009594384,26.1590,-18.9000,WGS84,7.2891,4.5293,9.0998,,0.000,0.000,9,9,9,0,00,02,00,01*01ca0df0
#BESTPOSA,UNKNOWN,0,86.5,FINESTEERING,2062,431951.000,02000020,b1f6,32768;SOL_COMPUTED,SINGLE,48.33791711294,-123.61017967570,32.4717,-18.9000,WGS84,7.4752,5.0618,9.8786,,0.000,0.000,8,8,8,0,00,02,00,01*ffeb9499
#BESTPOSA,UNKNOWN,0,86.0,FINESTEERING,2062,431952.000,02000020,b1f6,32768;SOL_COMPUTED,SINGLE,48.33777924671,-123.61026163995,37.6092,-18.9000,WGS84,6.9960,4.3797,8.6775,,0.000,0.000,9,9,9,0,00,02,00,01*0d057f81
#BESTPOSA,UNKNOWN,0,85.5,FINESTEERING,2062,431953.000,02000020,b1f6,32768;SOL_COMPUTED,SINGLE,48.33770625221,-123.61042612053,31.4961,-18.9000,WGS84,6.1864,4.2982,7.5816,,0.000,0.000,9,9,9,0,00,02,00,01*58880674
#BESTPOSA,UNKNOWN,0,86.5,FINESTEERING,2062,431954.000,02000020,b1f6,32768;SOL_COMPUTED,SINGLE,48.33761125128,-123.61058291417,26.8491,-18.9000,WGS84,6.4306,4.4097,7.8832,,0.000,0.000,9,9,9,0,00,02,00,01*d46b19e8
#BESTPOSA,UNKNOWN,0,85.5,FINESTEERING,2062,431955.000,02000020,b1f6,32768;SOL_COMPUTED,SINGLE,48.33751559392,-123.61073597271,25.7943,-18.9000,WGS84,6.3718,4.2268,7.6963,,0.000,0.000,9,9,9,0,00,02,00,01*aef7b995
#BESTPOSA,UNKNOWN,0,85.0,FINESTEERING,2062,431956.000,02000020,b1f6,32768;SOL_COMPUTED,SINGLE,48.33737256724,-123.61082708222,22.0513,-18.9000,WGS84,9.3640,6.0397,11.0883,,0.000,0.000,7,7,7,0,00,02,00,01*b0c8e648
#BESTPOSA,UNKNOWN,0,85.5,FINESTEERING,2062,431957.000,02000020,b1f6,32768;SOL_COMPUTED,SINGLE,48.33726621678,-123.61095283392,20.9429,-18.9000,WGS84,8.1235,5.3499,9.4658,,0.000,0.000,9,9,9,0,00,02,00,01*ec704938
#BESTPOSA,UNKNOWN,0,86.0,FINESTEERING,2062,431958.000,02000020,b1f6,32768;SOL_COMPUTED,SINGLE,48.33711403485,-123.61103331792,18.8737,-18.9000,WGS84,6.8579,4.8261,6.4602,,0.000,0.000,9,9,9,0,00,02,00,01*7ab4c162
#BESTPOSA,UNKNOWN,0,87.0,FINESTEERING,2062,431959.000,02000020,b1f6,32768;SOL_COMPUTED,SINGLE,48.33701901254,-123.61118135387,19.2032,-18.9000,WGS84,7.5958,5.2720,7.9976,,0.000,0.000,9,9,9,0,00,02,00,01*202e1079
#BESTPOSA,UNKNOWN,0,86.5,FINESTEERING,2062,431960.000,02000020,b1f6,32768;SOL_COMPUTED,SINGLE,48.33690880335,-123.61130532589,17.5485,-18.9000,WGS84,7.9171,5.4880,8.2821,,0.000,0.000,8,8,8,0,00,02,00,01*ea52efa3
#BESTPOSA,UNKNOWN,0,85.5,FINESTEERING,2062,431961.000,02000020,b1f6,32768;SOL_COMPUTED,SINGLE,48.33681670943,-123.61145116637,16.5498,-18.9000,WGS84,7.2001,5.0972,7.7762,,0.000,0.000,9,9,9,0,00,02,00,01*8dcec9fd
